id,name,lat,lon
1,Accra,5.603717,-0.18696
2,"Africa, port unspecified",5.603717,-0.18696
3,Ambriz,-7.86308,13.11926
4,Americas,18.45777,-66.0992
5,Amsterdam,52.37022,4.895168
6,Annapolis,38.97845,-76.4922
7,Annotta Bay,18.27035,-76.7704
8,"Anomabu, Adja, Agga",5.425707,-2.09226
9,Antigua,17.07466,-61.8175
10,Antigua or Dominica,17.07466,-61.8175
11,Antonia,18.18333,-76.4659
12,Arcahaie,18.12778,-72.0861
13,Ardra,6.082867,2.100833
14,Axim,4.866509,-2.24089
15,Badagry,6.431581,2.887644
16,Bahamas,25.03428,-77.3963
17,Bahia,-12.5797,-41.7007
18,Bahia Honda,22.9064,-83.1639
19,Baia de Sepetiba,-22.9708,-43.8775
20,Banana Islands,8.1159,-13.2115
21,Bance Island,8.569862,-13.0404
22,Banes,20.95704,-75.7197
23,Barbados,13.19389,-59.5432
24,Barcelona,41.38506,2.173404
25,Bassa,10.05447,8.799071
26,Bayonne,43.49295,-1.47484
27,Beaufort,32.4333,-80.6833
28,Belgium,50.50389,4.469936
29,Benguela,-12.5905,13.4165
30,Benin,9.30769,2.315834
31,Berbice,6.298915,-57.525
32,Bermuda,32.3078,-64.7505
33,"Bight of Benin, port unspecified",9.30769,2.315834
34,"Bight of Biafra and Gulf of Guinea Islands, port unspecified",2.8333,-8
35,Bights,2.8333,-8
36,Biloxi,30.39603,-88.8853
37,Bimbia,2.8333,-8
38,Bissagos,11.25,-16.0833
39,Bissau,11.88166,-15.6178
40,Black River,18.0257,-77.8509
41,Boary,-4.77861,11.86361
42,Bonny,2.8333,-8
43,Bordeaux,44.83779,-0.57918
44,Boston,42.36008,-71.0589
45,Brazil,-14.235,-51.9253
46,"Brazil, region unspecified",-14.235,-51.9253
47,Brest,48.39039,-4.48608
48,Bristol,51.45451,-2.58791
49,Bristol (RI),41.67711,-71.2662
50,British Americas,41.67711,-71.2662
51,British Caribbean,21.75,-71.5833
52,"British Caribbean, colony unspecified",21.75,-71.5833
53,British Leewards,17.1167,-61.85
54,Buenos Aires,-34.6037,-58.3816
55,C.C. Castle and Windward,-33.9259,18.4278
56,Cabanas,22.9777,-82.9224
57,Cabinda,-5.57057,12.19758
58,Cabo de BÏzios,-24.7469,-41.8819
59,Cabo Frio,-22.8869,-42.0266
60,Cabo Lopo Gonçalves,-0.633,8.7
61,Cacheu,12.27326,-16.1669
62,Cadiz,36.52706,-6.2886
63,Calabar,4.975717,8.341701
64,Cameroons,4.05,9.683333
65,Cameroons River,3.920278,9.556944
66,Campos,-21.7627,-41.3185
67,CanasÕ,23.11304,-81.7828
68,Cap des Palmes,4.368889,-7.72861
69,Cap Français,-48.6731,69.05639
70,Cap Lopez,-0.633,8.7
71,Cape Coast Castle,5.10359,-1.24112
72,Cape Lahou,5.133333,-5.01667
73,Cape Mount,6.723333,-11.3533
74,Cape of Good Hope,-34.3581,18.4719
75,Cape Verde Islands,16,-24
76,Caracas,10.48059,-66.9036
77,Cardenas,23.0428,-81.2036
78,Caribbean,21.46911,-78.6569
79,Carolinas,32.4333,-80.6833
80,Cartagena,10.39105,-75.4794
81,Casamance,12.61878,-16.0993
82,Catuamo and Maria Farinha,-7.59561,-34.8917
83,Cayenne,4.92242,-52.3135
84,Cayes (Les),18.20429,-73.7537
85,Charleston,32.77647,-79.9311
86,Chester,53.19339,-2.89308
87,Congo North,-0.22802,15.82766
88,Congo River,-2.42009,16.18162
89,Copacabana,-22.9698,-43.1869
90,Copenhagen,55.6761,12.56834
91,Corisco,0.917262,9.317375
92,Cork,51.89689,-8.48632
93,Costa da Mina,5.0833,-1.35
94,Cowes,50.76279,-1.30053
95,Cuba,21.52176,-77.7812
96,"Cuba, south coast",21.52176,-77.7812
97,"Cuba, west coast",21.52176,-77.7812
98,Cul-de-Sac,18.5333,-72.3333
99,Cumingsberg,6.25,-57.5167
100,Curaçao,12.16957,-68.99
101,Danish Gold Coast,5.546944,-0.1825
102,Danish West Indies,18.3333,-64.8333
103,Dartmouth,50.351,-3.579
104,Demerara,5.794783,-58.4085
105,Dieppe,49.92299,1.077483
106,Dois Rios,-23.1797,-44.1933
107,Dominica,15.415,-61.371
108,Dominica or Jamaica,15.415,-61.371
109,Dordrecht,51.8133,4.690093
110,Dunkerque,51.03437,2.376776
111,"Dutch Guianas, colony unspecified",5.825278,-55.15
112,Eastern New Jersey,40.467,-74.333
113,Elmina,5.105338,-1.3421
114,Emden,53.3594,7.20601
115,Epe,6.594595,3.977639
116,Essequibo,6.914755,-58.3033
117,Exeter,50.71841,-3.5339
118,Falmouth (Jam.),18.49,-77.661
119,Fort Dauphin,-25.0225,46.98537
120,Fort-Royale,14.6,-61.0833
121,France,46.22764,2.213749
122,French Caribbean,14.6,-61.0833
123,"French Caribbean, colony unspecified",14.6,-61.0833
124,Gabon,-0.80369,11.60944
125,Gallinhas,8.4844,-13.2344
126,Gambia,13.44318,-15.3101
127,Georgia,32.16562,-82.9001
128,Gibraltar,36.14075,-5.35359
129,Glasgow,55.86424,-4.25181
130,"Gold Coast, Fr. definition",5.546944,-0.1825
131,"Gold Coast, port unspecified",5.546944,-0.1825
132,Gor_e,14.66786,-17.3989
133,Great Britain,55.37805,-3.43597
134,Greenock,55.95648,-4.77198
135,Grenada,12.1165,-61.679
136,Groningen,53.21938,6.566502
137,Guadaloupe,16.25,-61.5833
138,Guanimar,22.69108,-82.6524
139,Guiana,4.860416,-58.9302
140,Hamburg,53.5653,10.0014
141,Hampton,37.02987,-76.3452
142,Havana,23.05407,-82.3452
143,Hellevoetsluis,51.83186,4.13181
144,Hispaniola,19.00187,-71.5724
145,Honduras,15.2,-86.2419
146,Honfleur,49.41876,0.233262
147,Ile de France,48.84992,2.637041
148,Iles de Los,9.500819,-13.7608
149,Ilha de Itamaric,-7.7478,-34.8258
150,Ilha de Marambaia,-23.1845,-47.3181
151,Ilha de Paquetà,-22.7661,-43.1081
152,Ilha Grande,-2.85811,-41.819
153,Inhambane,-23.888,35.39599
154,Isla de Pinas,21.75,-82.85
155,Jacmel,18.24301,-72.5264
156,Jacquin,6.65,2.15
157,Jamaica,18.10958,-77.2975
158,Jamaica or St. Kitts,18.10958,-77.2975
159,J_r_mie,18.63897,-74.1181
160,Kingston,17.9833,-76.8
161,Kingston (Demerera),6.789848,-58.1261
162,"Kingston, Savannah, Maryland",39.04575,-76.6413
163,Kormantine,5.2025,-1.09028
164,La Balise,29.1225,-89.1072
165,La Guiara,10.58751,-66.9214
166,La Rochelle,46.16033,-1.15114
167,"Lagos, Onim",6.524379,3.379206
168,Lancaster,54.047,-2.801
169,Lay,12.52262,-1.77079
170,Le Havre,49.49437,0.107929
171,L_ogane,18.51284,-72.624
172,Limerick,52.66802,-8.6305
173,Lisbon,38.72225,-9.13934
174,Liverpool,53.40837,-2.99157
175,Loango,-4.34231,15.27782
176,London,51.50735,-0.12776
177,Lorient,47.74825,-3.37024
178,Louisiana,30.9843,-91.9623
179,Lower James River,37.58905,-78.6594
180,Lucea,18.45042,-78.1764
181,Lyme,50.725,-2.94
182,Maca_,-22.3837,-41.7827
183,Madagascar,-18.7669,46.86911
184,Madeira,32.76071,-16.9595
185,"Magari, Manzanillo",20.3397,-77.1086
186,Malembo,-14.2292,34.81688
187,Mangaratiba,-22.9599,-44.0413
188,MaranhÜo,-4.96095,-45.2744
189,Margarita,10.99707,-63.9113
190,Mariel,22.98744,-82.7536
191,Marseille,43.29648,5.36978
192,Martha Brae,18.47048,-77.6601
193,Martinique,14.64153,-61.0242
194,Maryland,39.04575,-76.6413
195,Matanzas,22.57671,-81.3399
196,Mississippi,32.35467,-89.3985
197,Mobile,30.69537,-88.0399
198,Moerdijk,51.70182,4.62735
199,Monte Christi,19.84735,-71.6406
200,Montego Bay,18.47622,-77.8939
201,Montevideo,-34.9011,-56.1645
202,Montrose,56.70692,-2.46612
203,Montserrat,16.7425,-62.1874
204,Mozambique,-18.6657,35.52956
205,Mpinda,-29.1391,26.2377
206,Nantes,47.21837,-1.55362
207,Nassau,25.04798,-77.3554
208,Netherlands,52.13263,5.291266
209,"Netherlands, port unspecified",52.13263,5.291266
210,Nevis,17.15536,-62.5796
211,New Bedford,41.63622,-70.9342
212,New Calabar,4.958819,8.327819
213,New Orleans,29.95107,-90.0715
214,New Providence,40.69843,-74.4015
215,New York,40.71278,-74.0059
216,Newport,41.4901,-71.3128
217,Norfolk,36.85077,-76.2859
218,North Carolina,35.75957,-79.0193
219,North Potomac,39.09777,-77.2348
220,Nova Zeelandia (Wild Coast),6.783333,-58.5167
221,Odessa,46.48253,30.72331
222,"Other Dutch Americas, colony unspecified",5.825278,-55.15
223,Oxford,51.75202,-1.25773
224,Oyapock,3.888889,-51.8011
225,Parà,-1.99813,-54.9306
226,ParaÕba,-7.23996,-36.782
227,Paramaribo,5.852036,-55.2038
228,Paranaguà,-25.5166,-48.523
229,Patuxent,38.53997,-76.7477
230,Pernambuco,-8.81372,-36.9541
231,Petit-Goäve,18.43114,-72.8545
232,Philadelphia,39.95258,-75.1652
233,Pillau,54.65912,19.92289
234,Piscataqua,43.10549,-70.7912
235,Plymouth,50.37546,-4.14266
236,Pointe-ö-Pitre,16.23769,-61.534
237,Ponta Negro,-4.76916,-35.1711
238,Poole,50.71505,-1.98725
239,Popo,-3.32391,17.39103
240,Port Louis,-20.1669,57.50233
241,Port Maria,18.36536,-76.8923
242,Port Royal,17.93677,-76.8411
243,Port-au-Prince,18.5944,-72.3074
244,Port-de-Paix,19.93489,-72.8309
245,Porto Novo,6.496857,2.628852
246,Portobelo,9.548889,-79.653
247,Portsmouth (NH),43.07176,-70.7626
248,Portuguese Guinea,-12.0575,-77.046
249,Poulton,53.84396,-2.98628
250,Princes Island,0.33333,6.7333
251,Princes Island and Sê£o Tomê©,0.33333,6.7333
252,Providence,41.82399,-71.4128
253,Puerto Padre,21.18785,-76.6066
254,Puerto Rico,18.22083,-66.5901
255,Quilimane,-17.8503,36.92186
256,Rappahannock,37.79891,-76.6759
257,Rhode Island,41.58009,-71.4774
258,Rio de Janeiro,-22.9068,-43.1729
259,Rio de Janeiro province,-22.9139,-43.2094
260,"Rio de Janeiro, Sao Paulo, Santa Catarina",-22.8345,-43.0857
261,Rio de la Hacha,11.54417,11.54417
262,Rio Grande do Sul Province,-30.0346,-51.2177
263,Rio Pongo,10.16667,-14.0333
264,Rio Real,-11.4818,-37.9336
265,Rio SÜo Jeso,-20.8081,-49.3811
266,River Brass,4.317373,6.224294
267,River del Rey,4.733333,8.65
268,Rochefort,45.9367,-0.9617
269,Rotterdam,51.92442,4.477733
270,Sagua,23.05704,-82.3731
271,Saint Ann's Bay,18.43295,-77.1974
272,Saint-Domingue,18.48606,-69.9312
273,Saint-Malo,48.64934,-2.02567
274,Saint-Marc,19.10493,-72.6949
275,Saint-Pierre,14.7417,-61.1758
276,Santa Catarina,-27.2423,-50.2189
277,Santiago de Cuba,20.01693,-75.8302
278,Santo Domingo,18.48606,-69.9312
279,Santos,-23.9679,-46.3289
280,SÜo SebastiÜo,-23.8063,-45.4017
281,SÜo Tom_,0.330192,6.733343
282,SÜo Tom_ or Princes Island,0.330192,6.733343
283,Savanna la Mar,18.22917,-78.1393
284,Savannah,32.08354,-81.0998
285,Senegal,14.4974,-14.4524
286,"Senegambia and offshore Atlantic, port unspecified",13.46667,-16.6
287,Sherbro,7.555433,-12.6676
288,Shoreham,50.83421,-0.27156
289,Sierra Leone,8.460555,-11.7799
290,"Sierra Leone, port unspecified",8.460555,-11.7799
291,South Carolina,33.83608,-81.1637
292,South Potomac,39.01817,-77.2086
293,Southeast Brazil,-14.235,-51.9253
294,Spain,40.46367,-3.74922
295,Spanish Americas,21.52176,-77.7812
296,Spanish Central America,15.2,-86.2419
297,Spanish West Indies,18.48606,-69.9312
298,"Spanish West Indies, colony unspecified",18.48606,-69.9312
299,St. Augustine,29.90124,-81.3124
300,St. Barth_lemy,17.9,-62.8333
301,St. Croix,17.70584,-64.8585
302,St. Eustatius,17.48903,-62.9736
303,St. Kitts,17.25,-62.6667
304,St. Lucia,13.90944,-60.9789
305,St. Maarten,18.04248,-63.0548
306,St. Paul de Loanda,-8.83833,13.23444
307,St. Thomas,18.33536,-64.9534
308,St. Vincent,13.25,-61.2
309,Stabroek,6.807041,-58.16
310,Stockton,54.57,-1.32
311,Surinam,3.919305,-56.0278
312,Taipu,-5.62346,-35.5976
313,Texel,53.09955,4.808668
314,Tobago,11.25,-60.667
315,Tortola,18.43347,-64.6333
316,Tortuga,20.05487,-72.7925
317,Trinidad,10.46056,-61.2486
318,Trinidad de Cuba,21.79603,-79.9808
319,Ubatuba,-23.4337,-45.0838
320,Upper James River,37.58905,-78.6594
321,USA,37.09024,-95.7129
322,"USA, location unspecified",37.09024,-95.7129
323,Vannes,47.65824,-2.76085
324,Vera Cruz,19.19028,-96.1533
325,Virginia,37.43157,-78.6569
326,VitÑria,-20.2976,-40.2958
327,Vlissingen,51.45367,3.570913
328,Warren,41.7303,-71.2825
329,"West Central Africa and St. Helena, port unspecified",-15.95,-5.71667
330,West Indies,21.46911,-78.6569
331,Whitehaven,54.5497,-3.58923
332,Whydah,-26.1156,28.37181
333,Windward + Ivory + Gold + Benin,5.161389,-3.47028
334,Windward Coast (Nunez - Assini),5.161389,-3.47028
335,"Windward Coast, port unspecified",5.161389,-3.47028
336,York River,37.28305,-76.5604
337,Zanzibar,-6.16592,39.20264
338,Zeeland,51.49403,3.849682
63,336,1,
332,336,1,
332,116,1,
175,307,1,
332,54,1,
57,54,1,
71,71,1,
332,84,1,
332,246,1,
332,83,1,
131,123,1,
126,123,1,
186,160,1,
126,160,1,
332,160,1,
131,242,1,
329,307,2,
175,307,1,
63,307,2,
131,52,1,
71,80,1,
332,80,1,
332,160,3,
131,160,5,
1,160,1,
72,160,1,
71,242,1,
332,246,1,
63,256,1,
329,307,2,
71,52,1,
131,85,1,
131,123,1,
131,160,9,
126,160,1,
332,160,1,
329,160,1,
130,246,1,
332,54,1,
130,123,2,
131,160,1,
131,242,1,
332,246,1,
329,307,2,
131,52,1,
63,54,1,
332,83,1,
332,160,1,
131,160,3,
332,242,1,
131,242,2,
63,83,1,
126,85,1,
71,160,1,
329,160,3,
75,160,1,
131,160,1,
332,160,6,
332,242,1,
131,242,2,
286,242,1,
329,307,1,
87,31,1,
175,54,1,
57,54,2,
33,84,1,
126,85,1,
1,116,1,
332,160,1,
131,215,1,
332,258,1,
93,258,2,
63,302,1,
329,302,2,
329,307,5,
175,54,1,
57,54,1,
71,80,1,
42,83,1,
57,84,1,
131,160,1,
332,246,1,
156,246,1,
93,258,1,
329,302,1,
329,307,1,
126,54,1,
175,54,2,
183,54,1,
329,76,1,
131,80,1,
156,116,1,
332,246,1,
126,256,1,
329,302,4,
71,336,1,
131,52,1,
126,52,1,
1,54,1,
332,54,2,
329,54,2,
126,85,1,
131,85,2,
156,116,1,
332,142,1,
156,160,1,
63,160,1,
131,160,2,
332,160,1,
71,160,1,
332,246,2,
131,246,1,
71,246,1,
126,256,3,
131,277,1,
329,302,2,
329,307,2,
34,336,2,
212,336,1,
63,336,4,
183,54,1,
329,76,1,
63,85,1,
63,160,1,
156,160,1,
131,160,3,
183,160,1,
332,178,2,
126,179,1,
332,258,1,
329,302,1,
175,302,2,
329,307,1,
329,336,1,
131,336,1,
42,336,1,
183,336,1,
63,336,6,
131,160,2,
71,160,1,
286,178,1,
71,229,1,
131,242,1,
183,256,1,
87,302,2,
329,305,1,
131,336,1,
63,336,6,
329,31,1,
332,36,3,
57,36,1,
71,52,1,
57,52,1,
87,116,1,
131,160,1,
286,178,1,
183,215,1,
332,258,1,
93,258,1,
87,302,1,
131,336,2,
183,336,4,
63,336,3,
126,336,2,
113,31,1,
131,54,1,
335,83,1,
131,160,2,
57,160,1,
71,160,1,
126,160,2,
332,160,1,
332,242,1,
93,258,2,
113,302,1,
87,302,2,
71,318,1,
63,336,2,
175,54,1,
57,54,1,
286,83,1,
126,85,1,
329,152,1,
126,164,1,
93,258,1,
113,302,1,
87,302,3,
34,336,1,
57,336,1,
113,31,1,
71,52,1,
175,54,2,
329,54,1,
57,54,2,
126,85,2,
131,116,1,
332,160,1,
332,258,1,
93,258,1,
113,258,2,
113,302,1,
87,302,2,
63,336,2,
335,336,1,
329,54,5,
332,83,1,
329,84,1,
131,85,1,
71,142,2,
61,173,1,
42,256,1,
93,258,3,
113,258,3,
71,277,1,
87,302,3,
63,336,2,
286,36,1,
329,54,2,
332,83,1,
126,85,3,
131,111,1,
286,178,1,
131,242,1,
42,256,1,
63,256,3,
131,256,1,
113,302,2,
87,302,1,
131,336,1,
63,336,7,
335,336,2,
183,54,1,
72,83,1,
332,84,1,
126,85,1,
71,160,1,
332,173,1,
131,227,1,
113,258,1,
87,302,1,
131,336,1,
175,336,1,
329,336,1,
63,336,1,
183,54,1,
126,85,2,
20,85,1,
42,160,1,
131,160,1,
332,160,3,
332,164,1,
29,258,1,
63,336,1,
126,84,1,
126,85,1,
329,160,1,
63,160,4,
131,160,6,
34,160,1,
156,160,1,
57,160,1,
332,160,1,
39,173,1,
156,227,1,
183,54,2,
57,54,1,
329,54,1,
332,83,1,
126,84,1,
126,85,1,
42,85,1,
329,85,1,
42,160,1,
131,160,1,
42,336,1,
126,6,1,
332,52,1,
175,54,1,
57,54,2,
329,54,1,
175,84,1,
63,85,1,
42,85,2,
126,85,2,
57,85,2,
113,116,1,
57,123,1,
126,173,1,
156,227,1,
34,256,1,
131,31,1,
329,54,2,
126,62,1,
126,85,1,
63,85,3,
126,173,1,
126,219,1,
42,320,1,
126,336,1,
329,336,1,
42,336,1,
212,336,1,
126,62,1,
63,85,1,
126,85,2,
57,85,3,
250,173,1,
126,173,2,
126,179,1,
93,258,1,
126,320,1,
175,336,1,
63,336,2,
113,31,1,
329,54,1,
126,62,1,
34,62,1,
63,85,1,
126,85,2,
329,85,3,
131,85,1,
126,173,1,
126,229,1,
113,258,1,
126,292,1,
126,320,1,
126,336,1,
329,336,2,
113,31,1,
332,84,1,
329,85,7,
131,85,1,
61,173,1,
126,256,1,
332,274,1,
131,336,1,
329,336,1,
42,336,1,
63,336,1,
329,27,1,
113,31,1,
329,54,2,
332,84,1,
126,85,1,
329,85,4,
175,85,2,
34,85,2,
57,85,1,
61,173,1,
126,179,1,
42,179,1,
39,258,1,
57,292,1,
131,302,1,
126,320,1,
126,336,2,
42,336,1,
63,336,1,
126,44,1,
57,54,2,
175,85,1,
329,85,4,
57,85,2,
75,173,1,
126,256,1,
126,292,2,
126,320,1,
329,336,1,
332,84,1,
126,85,2,
329,85,5,
57,85,1,
75,215,1,
113,227,1,
126,256,1,
29,258,1,
332,274,3,
329,292,1,
329,320,1,
329,336,1,
131,31,1,
126,44,1,
63,85,2,
126,85,1,
329,85,1,
42,85,1,
175,85,1,
335,98,1,
250,98,1,
115,98,1,
130,244,1,
186,256,1,
126,256,1,
332,274,1,
115,274,1,
131,274,1,
183,307,1,
332,320,1,
131,336,1,
186,84,1,
329,84,1,
63,85,1,
329,85,1,
186,85,1,
72,98,1,
87,116,1,
63,219,1,
126,256,1,
34,336,1,
63,336,1,
42,336,2,
57,84,1,
113,84,3,
29,258,2,
115,274,1,
63,320,1,
63,336,1,
115,98,1,
42,160,4,
63,160,2,
131,160,1,
175,160,1,
29,258,2,
63,320,1,
42,336,1,
72,31,1,
126,44,1,
57,54,1,
329,54,1,
332,83,1,
186,84,1,
57,84,1,
115,84,2,
87,84,1,
332,98,1,
42,160,6,
131,160,1,
329,160,2,
63,160,3,
126,160,2,
115,160,1,
75,173,1,
286,213,1,
290,216,1,
75,258,1,
332,274,1,
42,320,1,
63,320,1,
131,322,1,
42,336,2,
332,52,1,
329,83,1,
88,83,1,
175,84,1,
57,84,2,
186,84,1,
42,85,1,
63,85,1,
57,85,1,
57,116,1,
87,116,1,
131,123,1,
131,160,3,
329,160,3,
42,160,9,
63,160,3,
335,160,1,
126,160,4,
30,160,2,
126,256,1,
250,279,1,
63,320,1,
63,336,1,
287,160,1,
63,160,2,
42,160,2,
30,160,2,
61,173,1,
126,256,1,
126,336,1,
63,160,2,
329,160,1,
42,160,4,
126,256,1,
131,336,1,
42,336,1,
175,84,1,
329,160,3,
42,160,1,
131,160,1,
29,258,2,
212,34,1,
131,44,1,
42,52,1,
131,160,9,
42,160,4,
329,160,7,
63,160,2,
329,246,1,
332,84,1,
57,84,1,
329,84,1,
126,85,2,
131,85,1,
57,98,1,
87,116,1,
57,160,1,
63,160,1,
131,160,3,
329,160,1,
42,160,4,
186,160,1,
131,215,1,
75,258,1,
175,274,1,
63,320,1,
34,320,1,
186,320,2,
63,336,1,
42,336,1,
57,84,1,
175,84,1,
186,84,2,
42,85,1,
126,85,1,
335,85,1,
34,85,1,
87,116,1,
329,123,1,
186,160,1,
175,243,1,
332,243,1,
332,244,1,
34,320,3,
34,52,1,
329,83,1,
332,84,1,
57,84,1,
126,85,1,
329,85,2,
63,160,1,
42,160,1,
61,173,1,
131,215,1,
329,229,1,
332,243,1,
57,243,1,
33,243,1,
42,283,1,
126,320,1,
42,320,1,
329,336,1,
131,6,1,
72,31,1,
124,52,1,
329,54,2,
63,84,1,
329,84,1,
63,85,3,
131,85,1,
42,85,1,
212,85,1,
126,141,1,
63,160,4,
329,160,1,
131,160,6,
42,160,4,
335,160,4,
71,160,4,
75,173,1,
61,173,1,
286,173,1,
329,179,1,
3,256,1,
329,256,1,
126,256,1,
332,274,1,
175,274,1,
42,292,1,
63,320,1,
126,320,1,
212,320,1,
42,320,2,
126,336,2,
131,336,1,
329,336,2,
34,336,1,
63,336,1,
42,336,1,
329,84,1,
175,84,2,
186,84,1,
335,84,1,
126,85,4,
329,160,1,
30,160,1,
335,160,2,
63,160,4,
42,160,3,
131,160,4,
25,160,1,
329,229,1,
42,243,1,
175,244,1,
204,258,2,
29,258,2,
332,274,1,
42,336,1,
175,84,3,
332,84,1,
115,84,1,
63,84,2,
287,85,1,
126,85,5,
131,85,2,
212,85,1,
335,160,1,
63,160,4,
42,160,5,
126,160,1,
30,160,1,
71,160,1,
329,160,3,
131,160,1,
212,160,3,
25,160,1,
239,160,1,
126,192,1,
126,215,2,
186,243,1,
115,243,1,
332,243,1,
42,243,1,
33,243,1,
286,243,1,
42,246,1,
30,30,1,
113,31,1,
126,52,1,
186,83,1,
175,84,1,
329,84,2,
57,84,1,
186,84,1,
126,85,6,
335,85,1,
186,85,1,
34,85,1,
64,85,1,
63,160,7,
334,160,1,
212,160,2,
30,160,2,
126,160,4,
42,160,6,
131,160,11,
329,160,3,
332,160,1,
335,160,10,
71,160,2,
126,173,1,
33,243,2,
175,274,1,
115,274,1,
34,320,1,
287,6,1,
34,83,1,
126,85,5,
63,85,1,
42,85,1,
212,85,1,
131,123,1,
63,160,2,
30,160,1,
131,160,3,
335,160,4,
42,160,4,
332,160,1,
239,160,2,
329,160,2,
29,258,1,
33,301,1,
72,31,1,
42,84,1,
126,85,3,
63,85,2,
126,112,1,
30,160,1,
131,160,3,
329,160,4,
42,160,3,
126,160,2,
39,173,1,
332,244,1,
126,301,1,
335,302,1,
113,31,1,
131,31,1,
126,85,4,
329,85,2,
131,85,2,
30,85,1,
335,85,1,
42,85,1,
61,173,1,
126,215,1,
126,234,1,
126,301,2,
41,302,1,
186,302,1,
126,6,1,
126,85,4,
33,85,1,
335,85,2,
42,85,1,
126,179,1,
126,219,1,
93,258,1,
71,301,1,
186,320,1,
335,44,1,
126,83,1,
335,85,1,
175,85,1,
126,85,3,
131,85,1,
57,85,1,
42,85,2,
239,123,1,
63,123,1,
131,215,1,
42,229,1,
42,256,1,
93,258,1,
29,258,2,
126,301,1,
148,320,1,
335,320,1,
34,6,1,
335,44,1,
239,83,1,
148,85,1,
329,85,1,
126,85,4,
71,123,1,
131,123,1,
42,142,1,
329,160,1,
175,160,1,
71,160,1,
131,215,1,
126,219,1,
71,232,1,
286,256,1,
175,256,1,
20,256,1,
148,256,1,
335,256,2,
25,336,1,
131,6,1,
71,6,1,
72,31,1,
335,44,1,
335,85,1,
71,85,1,
329,85,1,
87,116,1,
63,123,1,
42,123,2,
63,142,1,
63,160,2,
335,160,4,
30,160,1,
42,160,4,
131,160,1,
329,160,1,
71,215,1,
175,229,1,
286,229,1,
126,232,1,
332,256,1,
335,256,1,
131,256,1,
286,256,1,
126,301,1,
71,301,1,
72,302,1,
329,320,1,
42,320,1,
329,6,1,
87,31,1,
42,52,1,
71,85,1,
42,85,1,
329,85,1,
126,85,2,
131,141,1,
126,142,1,
329,142,3,
63,142,2,
42,160,2,
126,160,1,
239,160,1,
335,160,2,
329,160,1,
71,160,2,
332,160,2,
131,160,3,
30,160,1,
71,200,2,
131,215,1,
63,243,1,
93,258,1,
30,283,1,
335,320,2,
42,320,2,
42,80,1,
329,84,1,
186,84,1,
335,85,1,
332,85,1,
71,85,1,
126,85,4,
329,85,2,
329,142,2,
33,142,1,
71,142,1,
34,142,1,
42,142,2,
63,160,6,
186,160,1,
42,160,4,
34,160,2,
335,160,3,
148,160,1,
131,160,5,
332,160,2,
30,160,3,
71,160,1,
71,200,1,
175,243,1,
332,258,2,
130,274,1,
329,274,1,
286,274,1,
332,274,2,
186,320,1,
30,320,1,
126,52,1,
286,52,1,
329,83,1,
130,84,1,
57,84,1,
175,84,1,
186,84,1,
335,85,4,
286,85,1,
148,85,1,
63,85,1,
34,85,1,
126,85,9,
42,85,1,
25,85,2,
131,85,7,
329,85,6,
329,142,1,
335,160,4,
63,160,3,
30,160,1,
42,160,4,
33,160,1,
287,160,2,
131,160,2,
25,160,2,
71,160,2,
245,160,1,
167,160,1,
329,160,2,
71,199,1,
71,200,1,
63,200,1,
212,200,1,
115,243,1,
13,243,1,
332,243,3,
57,243,1,
13,258,1,
245,258,1,
115,258,1,
286,274,1,
332,274,1,
131,283,1,
286,292,1,
131,320,1,
87,31,1,
335,52,1,
126,52,1,
329,83,1,
175,84,1,
329,84,1,
42,85,1,
335,116,1,
63,160,2,
42,160,2,
131,160,3,
25,160,1,
30,160,2,
335,160,3,
20,160,1,
332,160,2,
329,160,3,
63,200,1,
212,200,2,
126,232,1,
131,243,1,
332,243,1,
335,243,1,
115,243,1,
33,243,1,
130,243,1,
286,243,2,
175,244,1,
332,258,1,
115,258,1,
332,274,1,
130,274,2,
1,274,1,
33,274,1,
34,274,1,
148,277,1,
148,283,1,
126,284,2,
290,284,1,
131,320,2,
126,6,1,
41,31,1,
63,52,2,
20,52,1,
33,84,1,
63,84,3,
329,84,2,
57,84,1,
290,84,1,
186,84,1,
329,85,2,
113,116,1,
72,116,1,
42,160,1,
25,160,1,
126,160,2,
34,160,1,
335,160,1,
131,160,1,
131,200,1,
332,243,2,
57,243,2,
329,243,2,
204,258,1,
93,258,1,
115,258,1,
329,274,1,
175,274,2,
212,283,1,
25,284,1,
329,284,1,
335,284,1,
131,301,1,
335,6,1,
57,31,1,
131,31,1,
42,42,1,
25,52,1,
335,52,1,
63,52,3,
42,52,1,
126,52,1,
20,52,1,
34,83,1,
329,84,1,
57,84,1,
335,85,1,
87,104,1,
72,116,1,
57,142,1,
63,160,1,
42,160,2,
30,160,3,
335,160,1,
239,160,1,
245,160,1,
131,160,1,
124,200,1,
130,243,1,
329,243,2,
126,243,1,
42,243,1,
130,244,1,
329,244,2,
130,274,1,
332,274,1,
329,274,1,
63,274,2,
212,283,1,
126,284,2,
329,284,1,
335,284,1,
131,301,1,
81,307,1,
329,320,1,
63,11,1,
87,31,1,
42,52,2,
335,52,1,
124,83,1,
329,84,1,
175,84,1,
34,84,1,
335,85,2,
63,85,1,
25,85,1,
329,85,3,
126,85,4,
30,85,1,
34,85,1,
20,85,1,
30,160,1,
25,160,1,
335,160,2,
131,160,1,
130,243,1,
34,243,1,
148,243,2,
63,243,1,
115,243,1,
245,243,1,
93,258,2,
332,258,1,
332,274,1,
33,274,1,
57,274,1,
126,284,2,
335,284,1,
148,301,1,
329,320,1,
124,52,1,
63,52,1,
335,52,2,
329,84,1,
130,84,1,
57,84,1,
87,116,1,
30,160,2,
332,160,1,
126,215,1,
332,243,1,
130,243,4,
245,243,1,
148,243,1,
115,258,1,
175,274,1,
332,274,1,
130,274,2,
57,274,1,
126,284,1,
287,284,1,
131,301,1,
329,320,1,
25,320,1,
126,320,2,
30,52,1,
335,52,1,
42,52,1,
126,52,1,
332,83,1,
175,84,1,
131,85,1,
329,85,2,
126,85,4,
186,116,1,
87,116,1,
72,116,1,
126,141,1,
30,160,1,
42,200,1,
148,200,1,
126,243,1,
130,243,2,
329,243,2,
329,244,1,
93,258,1,
29,258,9,
126,284,2,
335,301,1,
124,31,1,
186,31,1,
126,83,1,
329,84,1,
332,85,1,
335,85,3,
131,85,1,
126,85,5,
186,85,2,
72,116,1,
63,200,1,
130,243,1,
186,243,1,
167,243,1,
126,243,1,
329,243,1,
175,243,1,
1,243,1,
29,258,1,
332,274,1,
186,302,1,
329,320,1,
63,320,1,
113,31,1,
329,84,1,
148,85,1,
131,85,4,
71,85,1,
329,85,2,
335,85,4,
63,85,1,
126,85,7,
186,85,1,
332,85,1,
186,116,1,
57,116,1,
329,116,1,
239,160,1,
34,160,1,
126,192,1,
63,200,1,
186,243,2,
167,243,1,
130,243,2,
63,243,1,
286,243,1,
30,274,1,
332,274,2,
72,302,1,
186,302,1,
63,11,1,
25,52,1,
63,52,1,
30,52,1,
148,85,2,
335,85,1,
332,85,1,
126,85,4,
329,85,2,
87,111,1,
72,116,1,
87,116,1,
186,116,1,
63,160,1,
42,160,1,
335,160,1,
126,160,1,
332,243,1,
329,243,1,
286,243,1,
175,243,3,
329,274,2,
329,284,1,
126,284,2,
148,299,1,
329,52,1,
131,52,2,
30,52,1,
332,84,1,
329,84,1,
131,85,1,
124,104,1,
87,104,1,
175,116,1,
14,139,1,
130,155,1,
332,160,1,
148,200,1,
131,227,1,
130,243,1,
57,243,2,
245,243,1,
286,243,2,
329,244,1,
29,258,9,
329,274,1,
63,274,1,
332,274,1,
33,274,2,
335,301,1,
124,302,1,
87,302,3,
131,52,1,
329,84,1,
130,84,1,
63,84,1,
175,84,1,
72,104,1,
71,160,1,
64,160,1,
42,200,2,
130,243,2,
126,243,1,
245,243,3,
63,243,1,
332,243,1,
33,243,2,
329,243,7,
30,274,1,
186,274,1,
42,274,1,
175,274,3,
286,274,1,
286,286,1,
42,301,1,
63,301,1,
72,302,1,
335,52,1,
25,52,1,
63,52,1,
286,83,1,
286,84,1,
148,84,1,
148,155,1,
332,160,1,
42,200,1,
1,200,1,
335,227,1,
186,243,4,
245,243,2,
130,243,1,
167,243,1,
329,243,1,
63,243,1,
42,243,1,
286,243,2,
175,244,1,
186,244,1,
29,258,5,
245,274,3,
63,274,2,
87,302,1,
72,302,1,
186,302,1,
329,83,1,
332,83,1,
204,83,1,
329,84,1,
186,119,1,
13,243,1,
332,243,4,
329,243,2,
63,243,1,
29,258,6,
63,274,1,
33,274,1,
329,274,1,
332,83,1,
72,116,1,
335,116,1,
71,160,1,
126,160,1,
245,160,1,
29,258,1,
87,302,1,
131,160,2,
65,160,1,
29,258,1,
87,302,1,
131,40,1,
87,116,1,
71,160,3,
131,160,1,
334,160,1,
42,160,1,
148,200,1,
42,200,1,
131,241,1,
29,258,1,
113,301,1,
20,302,1,
63,160,1,
131,160,4,
239,160,1,
71,160,2,
332,160,2,
329,160,1,
113,201,1,
29,258,3,
329,84,1,
131,85,1,
212,142,1,
204,142,1,
57,142,1,
63,160,1,
131,160,1,
71,160,2,
42,160,4,
332,160,1,
329,160,2,
42,200,2,
63,200,1,
34,200,1,
148,243,1,
42,243,1,
329,243,1,
42,307,1,
148,85,1,
212,85,1,
71,85,1,
63,85,1,
335,85,1,
126,85,4,
131,85,3,
186,85,1,
334,85,1,
87,85,2,
113,104,1,
329,142,1,
42,160,10,
131,160,4,
63,160,3,
212,160,2,
332,160,3,
34,160,3,
71,160,2,
329,160,1,
20,160,1,
71,200,1,
175,213,1,
130,243,4,
186,243,1,
329,243,7,
332,243,3,
63,243,1,
175,243,1,
148,243,1,
329,274,1,
87,284,1,
87,302,1,
42,307,1,
329,11,1,
71,11,1,
126,27,2,
63,84,1,
42,84,1,
126,85,5,
71,85,2,
148,85,1,
131,85,4,
87,85,1,
113,104,4,
131,111,1,
42,142,2,
25,160,1,
131,160,3,
63,160,3,
71,160,6,
212,160,1,
42,160,8,
334,160,2,
30,243,1,
186,243,2,
124,243,1,
329,243,8,
204,243,1,
33,243,2,
130,243,5,
13,243,1,
63,243,1,
286,243,1,
332,274,1,
245,274,1,
175,274,1,
33,274,1,
71,283,1,
42,307,1,
42,52,1,
42,76,1,
148,84,1,
131,85,3,
126,85,1,
64,142,1,
148,142,1,
63,142,1,
167,142,1,
42,142,3,
71,160,1,
34,160,1,
131,160,2,
126,160,1,
63,160,1,
42,160,1,
334,160,1,
33,160,1,
124,160,1,
167,160,1,
212,200,1,
130,243,1,
186,243,1,
329,243,9,
148,243,2,
245,243,2,
42,243,2,
286,243,1,
245,274,1,
329,274,1,
131,301,1,
245,84,1,
63,84,2,
30,84,1,
130,84,2,
148,84,1,
113,84,1,
34,84,1,
329,84,1,
113,104,1,
42,142,1,
64,142,1,
329,155,3,
70,155,1,
42,160,3,
63,160,1,
131,160,3,
332,160,1,
33,160,2,
34,160,1,
124,243,1,
3,243,1,
329,243,3,
245,243,5,
57,243,1,
332,243,2,
34,243,1,
186,243,2,
286,243,2,
167,243,2,
130,274,1,
34,274,1,
42,274,1,
245,274,3,
329,274,1,
167,274,1,
335,40,1,
30,52,1,
212,52,1,
42,54,2,
42,80,1,
286,83,1,
63,84,3,
130,84,1,
332,84,1,
148,84,1,
186,84,1,
34,84,1,
329,84,4,
204,84,1,
70,84,1,
57,84,1,
113,104,1,
30,142,1,
42,142,1,
329,155,1,
63,160,1,
332,160,1,
71,160,1,
126,160,2,
33,160,1,
212,160,2,
34,200,1,
42,200,2,
131,200,2,
63,200,1,
42,201,3,
245,243,4,
329,243,6,
130,243,1,
57,243,2,
33,243,1,
332,243,1,
131,243,1,
186,243,4,
245,274,1,
131,274,1,
329,274,1,
33,274,1,
34,283,1,
131,40,1,
124,84,1,
63,84,5,
130,84,2,
245,84,1,
88,84,1,
25,84,1,
148,84,2,
286,84,1,
332,84,1,
34,84,1,
186,84,1,
204,84,2,
70,84,1,
175,84,1,
329,84,2,
163,84,1,
57,84,1,
113,104,1,
131,142,2,
30,142,1,
329,155,1,
71,160,2,
42,160,1,
131,160,4,
63,160,1,
64,160,1,
126,160,1,
34,160,4,
63,192,1,
42,200,2,
212,200,2,
212,201,1,
124,243,1,
329,243,4,
245,243,2,
130,243,3,
332,243,1,
204,243,3,
42,243,1,
33,243,1,
131,242,1,
329,274,2,
130,274,1,
204,274,1,
126,284,1,
335,284,1,
101,301,1,
329,305,1,
113,31,1,
25,40,1,
204,74,1,
63,84,3,
124,84,1,
130,84,1,
204,84,2,
34,84,1,
70,84,1,
329,84,2,
186,84,1,
113,104,1,
72,104,2,
131,142,2,
286,142,1,
126,142,1,
329,142,1,
286,155,1,
63,160,2,
131,160,3,
71,160,4,
245,160,1,
42,160,1,
212,192,1,
332,200,1,
42,200,5,
20,200,1,
167,200,1,
329,243,9,
29,243,1,
245,243,2,
204,243,1,
126,243,1,
63,243,1,
148,243,1,
130,243,6,
42,243,1,
167,243,1,
57,243,1,
186,243,2,
42,242,1,
70,274,1,
204,274,2,
245,274,1,
329,274,1,
332,274,1,
130,274,5,
286,274,1,
71,274,1,
175,274,1,
34,274,1,
113,31,1,
42,40,1,
131,40,1,
245,84,1,
63,84,2,
148,84,1,
286,84,1,
34,84,1,
42,84,1,
204,84,1,
87,104,1,
131,142,1,
329,142,2,
87,142,1,
34,142,1,
42,142,2,
245,142,1,
57,142,1,
33,142,1,
71,142,2,
63,160,3,
25,160,1,
131,160,4,
64,160,1,
34,160,2,
212,160,1,
71,160,1,
42,192,1,
42,200,4,
34,200,2,
212,200,2,
20,200,1,
131,200,1,
329,243,3,
245,243,3,
332,243,1,
42,243,1,
204,243,2,
88,243,1,
124,243,2,
63,243,3,
335,243,1,
167,243,1,
130,243,2,
29,258,1,
57,274,1,
186,274,1,
148,274,1,
329,274,1,
329,52,1,
130,84,1,
329,84,3,
335,104,1,
63,118,1,
329,142,1,
42,142,2,
286,142,1,
204,142,2,
71,142,1,
71,160,1,
332,160,1,
131,160,4,
34,160,1,
212,160,1,
63,160,1,
42,160,3,
88,160,1,
329,160,2,
329,178,1,
63,192,1,
34,200,3,
42,200,11,
332,200,1,
212,200,1,
148,200,1,
239,200,1,
329,201,1,
3,243,1,
130,243,1,
71,241,1,
29,258,4,
329,274,1,
124,271,1,
126,284,1,
131,284,1,
148,302,1,
113,31,1,
239,40,1,
126,52,1,
204,74,1,
124,83,1,
63,83,1,
335,104,1,
87,104,1,
38,118,1,
204,142,1,
167,142,1,
332,160,4,
25,160,1,
212,160,2,
186,160,1,
42,160,8,
131,160,5,
126,160,2,
34,160,2,
334,160,1,
3,160,3,
329,160,11,
148,160,2,
63,160,7,
71,160,1,
88,160,4,
42,192,1,
124,200,1,
42,200,5,
63,200,2,
212,200,5,
34,201,1,
63,241,1,
33,241,1,
29,258,11,
329,271,1,
148,284,2,
125,284,1,
335,284,1,
88,301,1,
204,302,1,
126,302,1,
124,1,1,
131,142,2,
71,142,2,
204,142,1,
33,142,1,
3,142,1,
239,142,1,
332,160,1,
239,160,1,
57,160,1,
131,160,3,
88,160,4,
186,160,1,
63,160,2,
329,160,17,
124,160,1,
71,160,2,
34,160,1,
148,160,1,
3,160,1,
29,258,3,
20,284,1,
131,305,1,
131,52,1,
33,84,1,
167,84,1,
3,123,1,
175,142,1,
204,142,1,
329,142,1,
3,142,2,
167,142,1,
33,142,2,
332,160,2,
57,160,1,
175,160,2,
42,160,1,
3,160,4,
335,160,1,
63,160,2,
329,160,5,
88,160,5,
33,160,1,
148,160,1,
186,160,1,
131,160,6,
186,186,1,
42,200,2,
131,200,1,
29,258,16,
29,279,2,
148,284,1,
126,284,1,
63,301,1,
239,52,1,
334,104,1,
71,104,1,
131,104,3,
148,104,1,
126,104,1,
148,142,1,
131,142,1,
329,142,1,
335,142,1,
42,142,1,
42,160,4,
57,160,1,
332,160,1,
212,160,1,
25,160,1,
329,160,2,
63,160,1,
131,160,4,
88,160,1,
3,160,3,
71,201,1,
29,201,1,
29,258,18,
126,284,3,
131,284,2,
71,284,1,
335,284,1,
148,284,6,
88,301,1,
42,301,1,
329,301,3,
204,74,2,
329,83,2,
148,85,1,
245,104,1,
3,104,1,
131,104,2,
71,104,4,
329,104,3,
88,104,1,
42,104,2,
148,142,1,
71,142,1,
42,160,10,
212,160,1,
175,160,2,
34,160,5,
3,160,1,
88,160,1,
329,160,8,
204,201,1,
250,201,1,
29,201,1,
88,243,1,
332,258,1,
204,258,2,
255,258,1,
29,258,14,
20,284,1,
148,284,1,
263,284,1,
64,301,1,
329,301,2,
63,301,1,
71,301,1,
329,83,1,
131,104,3,
71,104,4,
34,104,1,
88,104,1,
212,104,1,
329,104,6,
124,104,1,
126,104,2,
148,104,1,
334,104,1,
286,142,1,
131,142,1,
42,160,11,
63,160,2,
186,160,2,
88,160,1,
245,160,1,
71,160,1,
3,160,1,
34,160,2,
329,160,2,
42,200,3,
204,201,3,
204,258,1,
29,258,10,
148,284,2,
335,284,1,
329,284,1,
329,301,3,
131,309,1,
3,31,1,
57,104,1,
329,104,2,
71,104,1,
263,104,2,
131,104,3,
88,104,1,
126,104,2,
42,118,1,
131,118,1,
148,142,1,
286,142,1,
42,160,13,
63,160,1,
57,160,2,
88,160,3,
34,160,7,
212,160,1,
71,160,1,
186,160,3,
329,160,8,
3,160,1,
29,201,1,
204,201,3,
204,258,1,
29,258,11,
63,301,1,
329,301,4,
64,301,1,
42,307,1,
329,307,1,
335,52,1,
42,83,1,
329,104,7,
63,104,1,
1,104,1,
245,104,1,
71,104,7,
212,104,1,
88,104,1,
126,104,1,
42,104,1,
334,104,1,
131,104,3,
131,118,1,
131,142,2,
332,160,1,
212,160,3,
63,160,4,
186,160,4,
71,160,1,
34,160,3,
33,160,1,
88,160,5,
329,160,15,
42,160,16,
63,200,1,
42,200,3,
131,201,1,
335,201,1,
263,227,1,
290,242,1,
329,258,1,
29,258,11,
329,301,1,
334,307,1,
204,54,2,
25,104,2,
126,104,1,
263,104,2,
212,104,1,
71,104,5,
186,104,1,
42,104,1,
131,104,7,
332,104,3,
167,104,1,
88,104,3,
1,104,1,
63,104,2,
334,104,2,
88,142,1,
286,142,2,
71,142,1,
63,160,1,
332,160,1,
88,160,1,
131,160,5,
42,160,7,
329,160,13,
255,201,1,
29,258,12,
175,301,1,
204,54,2,
42,85,2,
263,85,1,
42,104,1,
71,104,1,
125,104,1,
263,104,1,
332,104,1,
335,104,1,
126,104,1,
167,104,1,
334,104,1,
131,104,10,
175,142,1,
88,142,2,
286,142,2,
1,142,1,
125,142,1,
212,142,4,
42,142,3,
329,142,4,
335,142,1,
131,142,3,
71,142,3,
186,160,3,
88,160,1,
42,160,11,
71,160,1,
131,160,5,
329,160,5,
212,160,1,
42,200,4,
33,201,1,
204,201,3,
204,258,5,
93,258,1,
29,258,20,
212,301,1,
63,301,2,
57,301,1,
329,301,2,
334,307,2,
63,307,2,
263,307,1,
113,31,1,
263,52,1,
329,52,1,
126,54,1,
329,54,1,
204,54,5,
263,85,1,
57,99,1,
71,104,1,
329,104,2,
42,104,2,
263,104,1,
334,104,1,
72,104,1,
131,104,3,
34,142,1,
204,142,3,
71,142,3,
88,142,1,
64,142,1,
329,142,1,
212,142,2,
131,142,4,
42,142,2,
332,160,2,
131,160,1,
88,160,2,
212,160,1,
34,160,1,
42,160,3,
329,160,2,
71,160,1,
42,200,1,
131,200,1,
88,201,1,
42,201,1,
204,201,6,
329,201,2,
153,201,1,
33,201,1,
88,213,1,
329,227,1,
204,258,1,
29,258,13,
329,284,3,
329,301,1,
329,305,1,
64,307,1,
33,307,1,
42,307,1,
329,307,1,
204,54,1,
126,54,1,
88,54,1,
29,54,1,
204,74,1,
33,85,1,
334,85,1,
88,85,6,
175,85,1,
148,85,2,
204,85,1,
335,85,2,
34,85,1,
131,85,4,
87,85,5,
126,85,3,
263,104,1,
63,104,1,
334,104,1,
329,104,2,
64,104,1,
61,104,1,
167,104,1,
131,104,3,
71,104,1,
255,142,1,
88,142,1,
175,142,1,
329,142,1,
42,142,3,
335,142,1,
113,142,1,
63,142,1,
34,160,1,
63,160,1,
131,160,1,
334,160,1,
64,160,1,
1,160,1,
42,160,5,
30,160,1,
329,160,2,
167,160,1,
42,200,1,
42,201,1,
204,201,6,
329,201,1,
87,213,1,
175,213,1,
131,227,1,
329,258,1,
29,258,9,
87,284,1,
34,307,1,
88,307,1,
42,307,1,
204,54,1,
29,54,1,
57,54,1,
204,74,1,
153,74,1,
175,83,1,
42,83,1,
88,85,7,
286,85,1,
126,85,1,
71,85,1,
263,85,4,
33,85,1,
131,85,6,
329,85,1,
42,85,1,
148,85,1,
335,85,4,
57,85,1,
87,85,1,
131,99,1,
239,104,1,
42,104,1,
335,104,1,
1,104,2,
125,104,1,
34,104,1,
131,104,2,
88,104,1,
334,104,3,
167,104,4,
71,104,1,
263,104,1,
88,142,1,
204,142,2,
286,142,1,
125,142,1,
1,142,1,
126,142,1,
148,142,1,
63,160,2,
131,160,2,
42,160,8,
88,160,1,
329,160,3,
131,161,1,
88,201,2,
57,201,1,
204,201,4,
3,201,1,
186,201,1,
175,201,4,
287,201,1,
329,201,1,
131,201,1,
88,207,1,
88,213,1,
29,258,16,
204,258,4,
126,307,1,
42,31,1,
167,31,1,
88,54,1,
204,74,4,
167,85,1,
263,85,13,
88,85,12,
175,85,1,
329,85,1,
126,85,2,
335,85,2,
148,85,5,
131,85,6,
334,85,1,
71,85,3,
113,85,1,
204,85,1,
42,85,1,
286,85,1,
87,85,5,
57,85,1,
329,99,1,
1,104,1,
335,104,1,
88,104,2,
263,104,1,
71,104,1,
131,104,1,
167,104,1,
71,142,1,
88,142,2,
263,142,2,
131,142,1,
34,160,2,
64,160,1,
42,160,8,
63,160,1,
131,160,2,
71,160,4,
329,160,2,
124,160,1,
1,160,1,
42,200,1,
335,200,1,
255,201,1,
204,201,6,
88,201,1,
263,201,1,
131,201,1,
329,201,2,
175,201,3,
337,201,1,
1,201,2,
29,258,7,
204,258,5,
131,283,1,
34,307,1,
64,307,1,
329,307,1,
88,27,1,
186,31,1,
204,74,1,
113,74,1,
175,83,1,
88,85,17,
334,85,2,
329,85,1,
42,85,3,
175,85,6,
126,85,9,
113,85,1,
71,85,1,
286,85,1,
263,85,13,
131,85,12,
57,85,4,
287,85,1,
148,85,14,
87,85,1,
250,85,2,
124,104,1,
34,104,1,
1,104,1,
88,104,1,
42,104,1,
131,104,1,
334,104,2,
88,123,1,
63,160,3,
175,160,1,
42,160,15,
34,160,1,
334,160,2,
88,160,3,
212,160,5,
329,160,2,
64,160,2,
57,160,1,
131,160,12,
72,160,1,
167,160,5,
71,160,2,
131,178,1,
42,200,3,
131,200,1,
204,201,1,
88,213,3,
204,213,1,
29,258,9,
153,258,1,
204,258,3,
42,271,1,
329,277,1,
42,277,1,
175,284,1,
329,307,1,
175,52,1,
204,74,3,
88,85,1,
126,85,1,
263,85,1,
42,104,1,
88,104,2,
131,104,1,
88,118,1,
335,118,1,
263,142,1,
148,142,1,
42,160,3,
88,160,1,
1,160,2,
329,160,1,
131,160,3,
204,178,1,
124,200,1,
204,201,1,
255,258,1,
29,258,7,
153,258,1,
204,258,4,
57,258,1,
175,142,1,
329,201,1,
63,258,1,
29,258,12,
153,258,1,
204,258,3,
57,258,2,
39,83,1,
329,142,1,
175,142,3,
126,142,1,
57,142,1,
204,201,4,
42,258,1,
29,258,12,
93,258,1,
63,258,1,
204,258,1,
186,258,1,
57,258,8,
124,258,1,
175,258,1,
153,258,1,
175,142,2,
263,142,1,
290,142,1,
329,142,1,
64,142,1,
204,201,1,
64,207,1,
332,258,1,
93,258,1,
29,258,12,
63,258,2,
42,258,1,
39,258,1,
124,258,1,
204,258,5,
87,258,1,
88,258,2,
250,258,1,
57,258,13,
204,74,2,
34,142,1,
63,142,1,
65,258,2,
63,258,1,
3,258,1,
87,258,1,
29,258,8,
175,258,1,
250,258,1,
88,258,3,
204,258,5,
131,258,1,
57,258,18,
153,258,2,
167,258,1,
93,142,1,
290,142,1,
329,142,1,
255,258,1,
63,258,2,
29,258,11,
88,258,1,
204,258,5,
57,258,20,
34,142,1,
263,142,2,
29,258,8,
65,258,2,
250,258,1,
183,258,1,
131,258,1,
204,258,4,
63,258,1,
57,258,14,
263,263,1,
204,74,1,
70,83,1,
335,142,2,
250,142,2,
125,142,1,
263,142,2,
29,258,7,
204,258,4,
255,258,1,
57,258,8,
212,142,1,
290,142,1,
329,142,1,
239,142,1,
255,258,1,
204,258,6,
29,258,9,
175,258,1,
57,258,23,
93,277,1,
204,74,1,
175,142,2,
286,142,1,
125,142,2,
3,142,1,
204,258,4,
255,258,1,
29,258,7,
57,258,31,
125,284,1,
39,284,1,
42,322,1,
204,74,1,
250,142,1,
125,142,1,
34,213,1,
183,258,2,
204,258,7,
29,258,5,
88,258,1,
255,258,2,
186,258,1,
57,258,43,
63,277,1,
286,83,1,
88,142,1,
337,142,5,
125,142,1,
3,142,2,
125,195,1,
29,258,5,
255,258,2,
204,258,7,
57,258,23,
88,258,5,
63,123,1,
286,142,1,
70,142,6,
175,142,2,
39,142,1,
337,142,2,
88,142,1,
204,142,1,
42,142,1,
125,142,2,
3,142,1,
204,258,3,
255,258,10,
29,258,7,
3,258,1,
183,258,10,
57,258,7,
337,277,1,
42,277,1,
57,284,1,
125,318,1,
72,318,1,
34,83,1,
63,83,1,
42,83,1,
81,96,1,
42,142,1,
186,142,1,
263,142,1,
1,142,1,
290,227,1,
3,258,1,
29,258,6,
65,258,1,
255,258,13,
204,258,6,
57,258,9,
42,277,1,
125,277,1,
42,318,2,
42,83,1,
125,123,1,
42,142,3,
81,142,1,
125,142,2,
42,253,1,
255,258,11,
204,258,10,
35,258,1,
29,258,11,
57,258,17,
167,258,1,
88,258,1,
42,277,1,
125,277,2,
75,277,1,
42,318,1,
63,71,1,
286,83,1,
290,142,1,
29,258,7,
3,258,3,
204,258,10,
65,258,1,
255,258,11,
186,258,1,
57,258,6,
29,276,1,
125,83,1,
183,142,1,
332,142,1,
29,258,9,
255,258,8,
3,258,11,
204,258,5,
186,258,1,
57,258,11,
29,262,1,
287,277,1,
42,277,1,
42,307,1,
57,54,1,
332,56,2,
42,142,1,
125,142,1,
33,142,1,
266,142,1,
3,258,6,
204,258,10,
29,258,8,
57,258,8,
186,258,3,
88,258,1,
255,258,8,
35,277,2,
63,277,3,
183,277,1,
42,277,2,
42,307,2,
57,54,1,
63,83,1,
125,83,1,
34,207,1,
3,258,19,
183,258,1,
204,258,6,
186,258,1,
29,258,12,
57,258,17,
255,258,7,
332,258,1,
88,258,4,
63,277,2,
332,277,1,
42,277,1,
42,307,1,
42,318,1,
125,22,1,
63,142,1,
3,258,17,
204,258,5,
88,258,3,
186,258,5,
29,258,12,
255,258,4,
75,258,1,
57,258,22,
153,258,1,
29,260,1,
63,277,1,
42,301,1,
42,22,1,
57,54,1,
3,54,2,
42,142,1,
3,142,1,
3,258,11,
204,258,11,
29,258,15,
186,258,5,
255,258,10,
57,258,26,
153,258,2,
88,258,8,
34,83,1,
125,142,8,
42,142,1,
250,142,1,
29,258,11,
183,258,1,
3,258,9,
255,258,10,
186,258,14,
204,258,11,
57,258,34,
88,258,6,
153,258,1,
42,142,1,
204,258,10,
3,258,9,
29,258,10,
255,258,8,
186,258,1,
88,258,4,
57,258,18,
153,258,6,
42,307,1,
332,142,2,
250,142,2,
167,142,1,
3,142,1,
266,142,1,
263,195,1,
61,207,1,
332,142,1,
125,142,1,
167,154,1,
167,142,1,
263,142,1,
131,142,1,
33,142,1,
329,160,1,
29,201,1,
29,258,1,
3,258,1,
167,142,2,
125,142,1,
35,142,1,
57,142,1,
329,201,1,
29,258,1,
329,258,1,
124,258,1,
329,260,2,
250,142,1,
125,142,2,
175,142,2,
88,142,3,
57,142,6,
263,142,1,
42,142,2,
167,142,1,
131,142,1,
204,195,1,
329,201,1,
3,259,2,
29,259,2,
329,260,4,
329,66,1,
255,66,1,
250,142,1,
204,142,2,
332,142,1,
63,195,1,
63,207,1,
3,237,1,
3,258,1,
329,258,2,
88,258,1,
29,258,5,
29,259,8,
329,259,1,
255,260,2,
204,260,1,
329,260,5,
29,318,1,
287,11,1,
255,66,3,
29,66,1,
70,66,1,
204,66,2,
204,142,1,
167,142,2,
266,142,1,
255,150,1,
125,160,1,
29,187,1,
29,190,1,
125,207,1,
29,237,1,
204,258,1,
75,258,1,
29,258,5,
3,259,2,
29,259,8,
255,259,1,
329,260,1,
204,260,1,
255,279,1,
204,312,1,
255,319,1,
255,19,2,
255,66,4,
57,66,1,
88,66,1,
204,66,1,
263,138,1,
88,142,1,
204,142,2,
57,152,2,
29,152,2,
204,152,2,
88,152,1,
255,152,1,
125,160,1,
167,207,1,
88,237,1,
29,237,1,
57,237,2,
255,237,2,
3,258,1,
255,258,1,
329,258,2,
57,258,1,
88,258,1,
29,258,7,
29,259,8,
57,259,2,
204,259,1,
250,270,2,
335,270,1,
167,277,1,
42,277,1,
287,307,1,
255,312,1,
29,312,1,
183,318,1,
75,318,1,
125,318,2,
255,19,1,
57,66,2,
255,66,6,
153,66,1,
204,66,1,
255,74,1,
3,138,1,
125,142,1,
204,142,2,
204,150,2,
255,150,1,
57,152,9,
29,152,1,
204,152,1,
88,152,1,
255,152,3,
167,154,1,
255,187,1,
204,190,1,
88,237,1,
204,258,5,
3,258,3,
57,258,4,
329,258,1,
29,258,10,
88,258,2,
255,258,2,
204,259,1,
255,260,1,
88,18,1,
57,66,8,
255,66,1,
329,66,1,
255,74,1,
204,74,2,
204,82,1,
29,82,1,
57,142,1,
39,160,1,
57,258,3,
29,258,7,
255,258,5,
88,259,1,
29,259,4,
255,259,1,
255,260,1,
332,18,1,
239,18,1,
167,18,1,
239,56,1,
33,56,1,
29,66,3,
3,66,5,
29,96,1,
239,138,1,
88,142,1,
125,142,1,
204,190,1,
88,190,1,
3,258,1,
329,258,6,
29,258,7,
255,258,2,
29,259,2,
57,259,2,
39,277,1,
29,279,1,
3,66,1,
255,66,1,
29,66,4,
39,195,1,
329,258,3,
29,258,1,
255,258,2,
33,259,1,
255,259,1,
329,260,1,
329,262,1,
39,277,1,
255,279,1,
33,279,1,
263,56,1,
57,59,1,
124,59,1,
255,66,1,
29,66,2,
88,66,1,
332,66,1,
329,66,4,
57,66,3,
29,74,1,
255,74,1,
125,142,1,
329,152,1,
75,195,1,
33,195,2,
39,195,1,
255,258,1,
29,258,1,
29,259,1,
329,259,1,
39,277,1,
33,279,1,
332,279,2,
255,279,1,
57,318,1,
124,59,2,
57,59,5,
255,59,1,
124,66,3,
29,66,1,
3,66,1,
57,66,2,
29,74,3,
124,152,1,
329,237,1,
329,258,1,
29,258,3,
29,259,1,
57,259,2,
255,259,2,
255,279,1,
3,322,1,
263,56,1,
290,59,1,
255,59,1,
57,59,2,
204,59,1,
29,59,2,
29,66,2,
3,66,2,
57,66,3,
204,74,1,
57,258,2,
329,258,6,
29,258,2,
29,259,1,
57,259,2,
57,56,1,
167,258,1,
329,258,4,
70,259,2,
57,259,1,
255,59,1,
329,74,1,
29,258,1,
329,258,4,
332,56,1,
3,59,1,
57,142,1,
3,258,1,
88,258,1,
29,258,3,
329,258,4,
3,260,1,
124,154,1,
29,258,1,
29,259,1,
88,259,1,
29,260,2,
87,260,1,
29,52,1,
57,59,1,
3,66,2,
57,66,2,
88,77,1,
88,106,1,
3,152,1,
70,160,1,
57,187,2,
29,187,1,
29,258,1,
3,259,1,
255,259,2,
125,260,1,
57,260,1,
255,260,3,
88,260,2,
3,279,1,
204,77,2,
29,195,1,
88,253,1,
29,258,2,
329,258,1,
255,259,1,
167,259,1,
88,259,2,
153,77,1,
88,77,1,
287,190,1,
255,259,1,
87,318,1,
204,56,1,
332,97,1,
88,270,1,
88,318,1,
332,18,1,
88,77,1,
88,154,1,
29,195,1,
88,253,1,
88,318,1,
3,318,1,
88,56,1,
29,77,1,
125,270,1,
88,270,1,
87,77,1,
332,97,1,
175,142,1,
57,160,1,
88,270,1,
88,77,1,
3,96,1,
88,97,2,
88,138,1,
175,190,1,
88,270,1,
204,77,2,
3,77,1,
332,97,1,
204,147,1,
88,270,1,
88,318,1,
88,18,1,
332,77,1,
88,77,2,
332,185,1,
87,195,1,
332,197,1,
57,253,1,
88,253,1,
88,77,1,
88,96,1,
88,185,1,
186,270,1,
88,270,1,
88,22,1,
332,154,1,
